Title,Latitude,Longitude
Interhelp,-37.7973,144.9658
OLIO app,-37.7969,144.9678
Foodbank Victoria,-37.7965,144.9704
Interhelp,-37.793,144.9734
One Tummy,-37.8025,144.9671
RUOK,-37.8034,144.9668
SPILL YOUR TEA,-37.8045,144.9645
YSHY Short for your Sexual Health Yard,-37.8028,144.9639
Titans,-37.8062,144.9657
Delta Dot Edu,-37.8053,144.9666
Clean water and Sanitation,-37.8167,144.9475
Creative Protocol,-37.8227,144.955
Stepping Zone,-37.8158,144.9835
MCISS (Monash Community of International Students in Science),-37.8158,144.9835
Brewcyclers,-37.82,144.9831
